{
	"result": "0",
	"locations": [{
		"id": 6724909461696559843,
		"title": "北京市",
		"address": "北京市东城区",
		"category": null,
		"city": "北京市",
		"latitude": 39.90459854,
		"longitude": 116.40700413,
		"coverUrls": [],
		"distance": 17815.0,
		"linkUrl": null,
		"extParams": null,
		"checkType": 2
	}, {
		"id": 3004015058817787588,
		"title": "快手总部",
		"address": "北京市海淀区元中心",
		"category": null,
		"city": "北京市",
		"latitude": 40.050069,
		"longitude": 116.316356,
		"coverUrls": [],
		"distance": 115.0,
		"linkUrl": null,
		"extParams": "{\"typeList\":[1]}",
		"checkType": 2
	}, {
		"id": 6724909544058687869,
		"title": "小米科技园",
		"address": "北京市海淀区安宁庄路上地moma北邻",
		"category": null,
		"city": "北京市",
		"latitude": 40.047852,
		"longitude": 116.317291,
		"coverUrls": [],
		"distance": 145.0,
		"linkUrl": null,
		"extParams": null,
		"checkType": 2
	}, {
		"id": 6724909544078187966,
		"title": "西二旗",
		"address": "北京市朝阳区地铁昌平线,地铁13号线地铁",
		"category": null,
		"city": "北京市",
		"latitude": 40.05301184964183,
		"longitude": 116.30619406700134,
		"coverUrls": [],
		"distance": 987.0,
		"linkUrl": null,
		"extParams": "{\"typeList\":[1]}",
		"checkType": 2
	}, {
		"id": 3002567701392892940,
		"title": "元中心",
		"address": "北京市北京市海淀区北京市海淀区西二旗中路29号",
		"category": null,
		"city": "北京市",
		"latitude": 40.050058,
		"longitude": 116.316277,
		"coverUrls": [],
		"distance": 115.0,
		"linkUrl": null,
		"extParams": null,
		"checkType": 2
	}, {
		"id": 6724909477926513572,
		"title": "上地",
		"address": "北京市海淀区",
		"category": null,
		"city": "北京市",
		"latitude": 40.035542,
		"longitude": 116.303276,
		"coverUrls": [],
		"distance": 1880.0,
		"linkUrl": null,
		"extParams": null,
		"checkType": 2
	}, {
		"id": 6724909376823959227,
		"title": "清河地铁站",
		"address": "北京市海淀区(在建)昌平线南延线;13号线",
		"category": null,
		"city": "北京市",
		"latitude": 40.04109,
		"longitude": 116.314797,
		"coverUrls": [],
		"distance": 897.0,
		"linkUrl": null,
		"extParams": null,
		"checkType": 2
	}, {
		"id": 6724909527812031410,
		"title": "中关村移动智能服务创新园(建设中)",
		"address": "北京市北京市海淀区北京市海淀区西二旗南路",
		"category": null,
		"city": "北京市",
		"latitude": 40.050049,
		"longitude": 116.316259,
		"coverUrls": [],
		"distance": 115.0,
		"linkUrl": null,
		"extParams": null,
		"checkType": 2
	}, {
		"id": 6724909516380041206,
		"title": "北京外国语大学北外附属外国语学校",
		"address": "北京市海淀区西二旗大街19号",
		"category": null,
		"city": "北京市",
		"latitude": 40.058206,
		"longitude": 116.320524,
		"coverUrls": [],
		"distance": 1073.0,
		"linkUrl": null,
		"extParams": null,
		"checkType": 2
	}, {
		"id": 3003416300106689911,
		"title": "麦当劳(上地·元中心店)",
		"address": "北京市海淀区西二旗中路29号上地元中心5号楼一层101室",
		"category": null,
		"city": "北京市",
		"latitude": 40.049953,
		"longitude": 116.316314,
		"coverUrls": [],
		"distance": 103.0,
		"linkUrl": null,
		"extParams": "{\"typeList\":[1]}",
		"checkType": 2
	}, {
		"id": 3004215390491912494,
		"title": "河狸家美业(得实店）",
		"address": "北京市海淀区得实大厦上地东路10号楼 4单元605",
		"category": null,
		"city": "北京市",
		"latitude": 40.0518,
		"longitude": 116.31439,
		"coverUrls": [],
		"distance": 358.0,
		"linkUrl": null,
		"extParams": null,
		"checkType": 2
	}, {
		"id": 6724909519322925590,
		"title": "罗马湖公园",
		"address": "北京市顺义区后沙峪镇罗马湖左堤路",
		"category": null,
		"city": "北京市",
		"latitude": 40.102786,
		"longitude": 116.515601,
		"coverUrls": [],
		"distance": 17958.0,
		"linkUrl": null,
		"extParams": "{\"typeList\":[1]}",
		"checkType": 2
	}, {
		"id": 6724909363616037888,
		"title": "清河",
		"address": "北京市海淀区",
		"category": null,
		"city": "北京市",
		"latitude": 40.040176,
		"longitude": 116.342812,
		"coverUrls": [],
		"distance": 2441.0,
		"linkUrl": null,
		"extParams": null,
		"checkType": 2
	}, {
		"id": 6724909544062742699,
		"title": "星巴克(小米科技园2店)",
		"address": "北京市海淀区西二旗中路33号院小米科技园D栋1层",
		"category": null,
		"city": "北京市",
		"latitude": 40.047403,
		"longitude": 116.316636,
		"coverUrls": [],
		"distance": 182.0,
		"linkUrl": null,
		"extParams": "{\"typeList\":[1]}",
		"checkType": 2
	}, {
		"id": 3004215374062757714,
		"title": "河狸家美业(奎科店）",
		"address": "北京市海淀区奎科科技大厦开拓路7号10号楼 3单元702",
		"category": null,
		"city": "北京市",
		"latitude": 40.047932,
		"longitude": 116.312726,
		"coverUrls": [],
		"distance": 350.0,
		"linkUrl": null,
		"extParams": null,
		"checkType": 2
	}, {
		"id": 6724909466265342921,
		"title": "上第MOMA",
		"address": "北京市海淀区安宁庄路",
		"category": null,
		"city": "北京市",
		"latitude": 40.045524,
		"longitude": 116.31732,
		"coverUrls": [],
		"distance": 396.0,
		"linkUrl": null,
		"extParams": null,
		"checkType": 2
	}, {
		"id": 6724909420898847750,
		"title": "清河街道",
		"address": "北京市海淀区小营西路",
		"category": null,
		"city": "北京市",
		"latitude": 40.035641,
		"longitude": 116.334533,
		"coverUrls": [],
		"distance": 2135.0,
		"linkUrl": null,
		"extParams": null,
		"checkType": 2
	}, {
		"id": 6724909485421175806,
		"title": "西二旗益民市场",
		"address": "北京市海淀区西二旗大街与西二旗西路交叉口东南100米",
		"category": null,
		"city": "北京市",
		"latitude": 40.052373,
		"longitude": 116.312991,
		"coverUrls": [],
		"distance": 479.0,
		"linkUrl": null,
		"extParams": null,
		"checkType": 2
	}, {
		"id": 3004643088770601300,
		"title": "壳牌华成欣加油站",
		"address": "北京市海淀区西二旗中路29号",
		"category": null,
		"city": "北京市",
		"latitude": 40.049622,
		"longitude": 116.318184,
		"coverUrls": [],
		"distance": 151.0,
		"linkUrl": null,
		"extParams": null,
		"checkType": 2
	}, {
		"id": 3004606154734410330,
		"title": "都市到家·家政保洁(罗西路店)",
		"address": "北京市顺义区后沙峪镇罗各庄村罗西路7号-3",
		"category": null,
		"city": "北京市",
		"latitude": 40.100571,
		"longitude": 116.51133,
		"coverUrls": [],
		"distance": 17534.0,
		"linkUrl": null,
		"extParams": "{\"typeList\":[1]}",
		"checkType": 2
	}, {
		"id": 6724909458555472637,
		"title": "铭科苑",
		"address": "北京市海淀区安宁庄西路29号",
		"category": null,
		"city": "北京市",
		"latitude": 40.05201892,
		"longitude": 116.31492065,
		"coverUrls": [],
		"distance": 359.0,
		"linkUrl": null,
		"extParams": null,
		"checkType": 2
	}, {
		"id": 6724909544117075093,
		"title": "燕尚园",
		"address": "北京市北京市海淀区北京市海淀区西二旗西路",
		"category": null,
		"city": "北京市",
		"latitude": 40.048551,
		"longitude": 116.313358,
		"coverUrls": [],
		"distance": 279.0,
		"linkUrl": null,
		"extParams": null,
		"checkType": 2
	}, {
		"id": 3004602981180347471,
		"title": "玖点台球",
		"address": "北京市海淀区润尚路与西二旗西路交叉口正南方向20米左右",
		"category": null,
		"city": "北京市",
		"latitude": 40.049872,
		"longitude": 116.313842,
		"coverUrls": [],
		"distance": 250.0,
		"linkUrl": null,
		"extParams": null,
		"checkType": 2
	}, {
		"id": 3002264700657865308,
		"title": "中石化(京西安宁庄店)",
		"address": "北京市海淀区清河街道安宁庄路2号中国石化安宁庄加油站",
		"category": null,
		"city": "北京市",
		"latitude": 40.048991,
		"longitude": 116.320489,
		"coverUrls": [],
		"distance": 333.0,
		"linkUrl": null,
		"extParams": null,
		"checkType": 2
	}, {
		"id": 3004215406514840923,
		"title": "河狸家美业(创业路店）",
		"address": "北京市海淀区创业路8号6号楼 6单元1308",
		"category": null,
		"city": "北京市",
		"latitude": 40.046377,
		"longitude": 116.31789,
		"coverUrls": [],
		"distance": 316.0,
		"linkUrl": null,
		"extParams": null,
		"checkType": 2
	}, {
		"id": 6724909544132255457,
		"title": "智学苑小区",
		"address": "北京市海淀区西二旗西路29附近",
		"category": null,
		"city": "北京市",
		"latitude": 40.05132811,
		"longitude": 116.31265414,
		"coverUrls": [],
		"distance": 419.0,
		"linkUrl": null,
		"extParams": null,
		"checkType": 2
	}, {
		"id": 3004342041785248335,
		"title": "武圣羊汤(燕尚园店)",
		"address": "北京市海淀区西二旗燕尚园3号楼底商",
		"category": null,
		"city": "北京市",
		"latitude": 40.049636,
		"longitude": 116.313759,
		"coverUrls": [],
		"distance": 248.0,
		"linkUrl": null,
		"extParams": null,
		"checkType": 2
	}, {
		"id": 6724909470977232620,
		"title": "壳牌北京市华成欣加油站",
		"address": "北京市海淀区西二旗中路29号",
		"category": null,
		"city": "北京市",
		"latitude": 40.049618,
		"longitude": 116.318082,
		"coverUrls": [],
		"distance": 143.0,
		"linkUrl": null,
		"extParams": null,
		"checkType": 2
	}, {
		"id": 6724909368889501493,
		"title": "招商银行(西二旗中路支行)",
		"address": "北京市海淀区安宁庄路与西二旗中路交叉路口往西北约150米(小米科技园)",
		"category": null,
		"city": "北京市",
		"latitude": 40.0470955,
		"longitude": 116.31773514,
		"coverUrls": [],
		"distance": 237.0,
		"linkUrl": null,
		"extParams": null,
		"checkType": 2
	}, {
		"id": 3004215401636767553,
		"title": "河狸家美业(创业店）",
		"address": "北京市海淀区创业路6号3号楼 7单元401",
		"category": null,
		"city": "北京市",
		"latitude": 40.048471,
		"longitude": 116.316226,
		"coverUrls": [],
		"distance": 70.0,
		"linkUrl": null,
		"extParams": null,
		"checkType": 2
	}, {
		"id": 3004062777797974026,
		"title": "中关村科技园上地北区",
		"address": "北京市海淀区上地东路与上地十街交叉口正西方向66米",
		"category": null,
		"city": "北京市",
		"latitude": 40.053297,
		"longitude": 116.303792,
		"coverUrls": [],
		"distance": 1186.0,
		"linkUrl": null,
		"extParams": null,
		"checkType": 2
	}],
	"extParams": "{\"cityName\":\"北京市\"}",
	"requestId": "ELmAgICAtaGyChiCBSDClOvK6DEoyrDz0wY=",
	"pcursor": "1$40.049033,116.316595"
}