{		
	"result": 2,
	"locations": [{
		"id": 3003416300106689911,
		"title": "麦当劳(上地·元中心店)",
		"address": "北京市海淀区西二旗中路29号上地元中心5号楼一层101室",
		"province": "北京市",
		"district": "海淀区",
		"category": "餐饮-西式快餐-西式快餐",
		"city": "北京市",
		"latitude": 40.049953,
		"longitude": 116.316314,
		"coverUrls": null,
		"distance": 48.943615290660354,
		"linkUrl": null,
		"extParams": "{\"localLife\":\"{\\\"commodityCount\\\":53,\\\"commodityWithPromotionCount\\\":53,\\\"localLifePromotionId\\\":-1,\\\"punishStatus\\\":0,\\\"distributorInvoiceFlag\\\":false}\"}",
		"checkType": 4
	}, {
		"id": 6724909544062742699,
		"title": "星巴克(小米科技园2店)",
		"address": "北京市海淀区西二旗中路33号院小米科技园D栋1层",
		"province": "北京市",
		"district": "海淀区",
		"category": "餐饮-咖啡厅-咖啡厅",
		"city": "北京市",
		"latitude": 40.047403,
		"longitude": 116.316636,
		"coverUrls": null,
		"distance": 236.0281010084643,
		"linkUrl": null,
		"extParams": "{\"localLife\":\"{\\\"commodityCount\\\":7,\\\"commodityWithPromotionCount\\\":7,\\\"localLifePromotionId\\\":0,\\\"punishStatus\\\":0,\\\"distributorInvoiceFlag\\\":false}\"}",
		"checkType": 4
	}, {
		"id": 3004015058817787588,
		"title": "快手总部",
		"address": "北京市海淀区元中心",
		"province": "北京市",
		"district": "海淀区",
		"category": "公司企业-公司企业相关-公司企业相关",
		"city": "北京市",
		"latitude": 40.050069,
		"longitude": 116.316356,
		"coverUrls": null,
		"distance": 61.81675340214991,
		"linkUrl": null,
		"extParams": "{\"localLife\":\"{\\\"commodityCount\\\":0,\\\"commodityWithPromotionCount\\\":0,\\\"localLifePromotionId\\\":-1,\\\"punishStatus\\\":0,\\\"distributorInvoiceFlag\\\":false}\"}",
		"checkType": 4
	}, {
		"id": 3003708856133034834,
		"title": "晋壹刀削面",
		"address": "北京市海淀区西二旗西路",
		"province": "北京市",
		"district": "海淀区",
		"category": "餐饮-小吃快餐-快餐简餐",
		"city": "北京市",
		"latitude": 40.049785,
		"longitude": 116.313932,
		"coverUrls": null,
		"distance": 207.0628046188748,
		"linkUrl": null,
		"extParams": "{\"localLife\":\"{\\\"commodityCount\\\":0,\\\"commodityWithPromotionCount\\\":0,\\\"localLifePromotionId\\\":-1,\\\"punishStatus\\\":0,\\\"distributorInvoiceFlag\\\":false}\"}",
		"checkType": 4
	}, {
		"id": 3004643088770601300,
		"title": "壳牌华成欣加油站",
		"address": "北京市海淀区西二旗中路29号",
		"province": "北京市",
		"district": "海淀区",
		"category": "汽车-加油站-加油站",
		"city": "北京市",
		"latitude": 40.049622,
		"longitude": 116.318184,
		"coverUrls": null,
		"distance": 157.56404877236724,
		"linkUrl": null,
		"extParams": "{\"localLife\":\"{\\\"commodityCount\\\":4,\\\"commodityWithPromotionCount\\\":4,\\\"localLifePromotionId\\\":-1,\\\"punishStatus\\\":0,\\\"distributorInvoiceFlag\\\":false}\"}",
		"checkType": 4
	}, {
		"id": 3004606154734410330,
		"title": "都市到家·家政保洁(罗西路店)",
		"address": "北京市顺义区后沙峪镇罗各庄村罗西路7号-3",
		"province": "北京市",
		"district": "顺义区",
		"category": "生活服务-家政服务-家政服务",
		"city": "北京市",
		"latitude": 40.100571,
		"longitude": 116.51133,
		"coverUrls": null,
		"distance": 17536.72842884446,
		"linkUrl": null,
		"extParams": "{\"localLife\":\"{\\\"commodityCount\\\":19,\\\"commodityWithPromotionCount\\\":0,\\\"localLifePromotionId\\\":-1,\\\"punishStatus\\\":0,\\\"distributorInvoiceFlag\\\":false}\",\"typeList\":[1]}",
		"checkType": 4
	}, {
		"id": 3002168755130770267,
		"title": "攸州小镇湘菜",
		"address": "北京市海淀区西二旗铭科苑",
		"province": "北京市",
		"district": "海淀区",
		"category": "餐饮-川湘菜-湘菜",
		"city": "北京市",
		"latitude": 40.050375,
		"longitude": 116.313539,
		"coverUrls": null,
		"distance": 256.8441798545548,
		"linkUrl": null,
		"extParams": "{\"localLife\":\"{\\\"commodityCount\\\":0,\\\"commodityWithPromotionCount\\\":0,\\\"localLifePromotionId\\\":-1,\\\"punishStatus\\\":0,\\\"distributorInvoiceFlag\\\":false}\",\"typeList\":[1]}",
		"checkType": 4
	}, {
		"id": 6724909544136005417,
		"title": "村上一屋(小米科技园店)",
		"address": "北京市海淀区西二旗中路33号院2号楼地下一层\n001-002号",
		"province": "北京市",
		"district": "海淀区",
		"category": "餐饮-日本菜-寿司",
		"city": "北京市",
		"latitude": 40.047966,
		"longitude": 116.318413,
		"coverUrls": null,
		"distance": 246.55609028719468,
		"linkUrl": null,
		"extParams": "{\"localLife\":\"{\\\"commodityCount\\\":5,\\\"commodityWithPromotionCount\\\":0,\\\"localLifePromotionId\\\":-1,\\\"punishStatus\\\":0,\\\"distributorInvoiceFlag\\\":false}\"}",
		"checkType": 4
	}, {
		"id": 3003092492509845154,
		"title": "星巴克(北京上地元中心店)",
		"address": "北京市海淀区清河街道西二旗西路16号院6号楼一层102",
		"province": "北京市",
		"district": "海淀区",
		"category": "餐饮-咖啡厅-咖啡厅",
		"city": "北京市",
		"latitude": 40.050474,
		"longitude": 116.316912,
		"coverUrls": null,
		"distance": 117.46235309615403,
		"linkUrl": null,
		"extParams": "{\"localLife\":\"{\\\"commodityCount\\\":7,\\\"commodityWithPromotionCount\\\":7,\\\"localLifePromotionId\\\":0,\\\"punishStatus\\\":0,\\\"distributorInvoiceFlag\\\":false}\"}",
		"checkType": 4
	}, {
		"id": 3004345246210364690,
		"title": "友香林秘制坛子肉",
		"address": "北京市海淀区西二旗智学苑配套商业用房'A座一层103室",
		"province": "北京市",
		"district": "海淀区",
		"category": "其它-其它-其它",
		"city": "北京市",
		"latitude": 40.050244,
		"longitude": 116.313598,
		"coverUrls": null,
		"distance": 247.02427619872998,
		"linkUrl": null,
		"extParams": "{\"localLife\":\"{\\\"commodityCount\\\":0,\\\"commodityWithPromotionCount\\\":0,\\\"localLifePromotionId\\\":-1,\\\"punishStatus\\\":0,\\\"distributorInvoiceFlag\\\":false}\"}",
		"checkType": 4
	}, {
		"id": 6724909470977232620,
		"title": "壳牌北京市华成欣加油站",
		"address": "北京市海淀区西二旗中路29号",
		"province": "北京市",
		"district": "海淀区",
		"category": "汽车-加油站-加油站",
		"city": "北京市",
		"latitude": 40.049618,
		"longitude": 116.318082,
		"coverUrls": null,
		"distance": 148.87305790196044,
		"linkUrl": null,
		"extParams": "{\"localLife\":\"{\\\"commodityCount\\\":0,\\\"commodityWithPromotionCount\\\":0,\\\"localLifePromotionId\\\":-1,\\\"punishStatus\\\":0,\\\"distributorInvoiceFlag\\\":false}\"}",
		"checkType": 4
	}, {
		"id": 3003720779006256073,
		"title": "元气时代(元中心店)",
		"address": "北京市海淀区西二旗西路元中心地下二层T9区域洗车房",
		"province": "北京市",
		"district": "海淀区",
		"category": "汽车-美容洗车-美容洗车",
		"city": "北京市",
		"latitude": 40.049455,
		"longitude": 116.314855,
		"coverUrls": null,
		"distance": 126.44344031531614,
		"linkUrl": null,
		"extParams": "{\"localLife\":\"{\\\"commodityCount\\\":8,\\\"commodityWithPromotionCount\\\":1,\\\"localLifePromotionId\\\":-1,\\\"punishStatus\\\":0,\\\"distributorInvoiceFlag\\\":false}\"}",
		"checkType": 4
	}, {
		"id": 3004215401636767553,
		"title": "河狸家美业(创业店）",
		"address": "北京市海淀区创业路6号3号楼 7单元401",
		"province": "北京市",
		"district": "海淀区",
		"category": "丽人-美甲美睫-美甲美睫",
		"city": "北京市",
		"latitude": 40.048471,
		"longitude": 116.316226,
		"coverUrls": null,
		"distance": 116.29628710766605,
		"linkUrl": null,
		"extParams": "{\"localLife\":\"{\\\"commodityCount\\\":39,\\\"commodityWithPromotionCount\\\":0,\\\"localLifePromotionId\\\":0,\\\"punishStatus\\\":0,\\\"distributorInvoiceFlag\\\":false}\"}",
		"checkType": 4
	}, {
		"id": 3004345389407900177,
		"title": "星巴克沿街取餐点(北京上地元中心店)",
		"address": "北京市海淀区元中心西南侧-西二旗西路-上车点",
		"province": "北京市",
		"district": "海淀区",
		"category": "餐饮-咖啡厅-咖啡厅",
		"city": "北京市",
		"latitude": 40.049234,
		"longitude": 116.314575,
		"coverUrls": null,
		"distance": 153.2908361088953,
		"linkUrl": null,
		"extParams": "{\"localLife\":\"{\\\"commodityCount\\\":7,\\\"commodityWithPromotionCount\\\":7,\\\"localLifePromotionId\\\":0,\\\"punishStatus\\\":0,\\\"distributorInvoiceFlag\\\":false}\"}",
		"checkType": 4
	}, {
		"id": 6724909338889227949,
		"title": "肯德基(小米科技园)",
		"address": "北京市海淀区安宁庄路小米科技园G栋(仅限园区内)",
		"province": "北京市",
		"district": "海淀区",
		"category": "餐饮-西式快餐-西式快餐",
		"city": "北京市",
		"latitude": 40.048301,
		"longitude": 116.317741,
		"coverUrls": null,
		"distance": 180.0744643067154,
		"linkUrl": null,
		"extParams": "{\"localLife\":\"{\\\"commodityCount\\\":42,\\\"commodityWithPromotionCount\\\":26,\\\"localLifePromotionId\\\":-1,\\\"punishStatus\\\":0,\\\"distributorInvoiceFlag\\\":false}\"}",
		"checkType": 4
	}, {
		"id": 4003125798799123269,
		"title": "小米",
		"address": "北京市海淀区西二旗中路与安宁庄路交叉口西北100米",
		"province": "北京市",
		"district": "海淀区",
		"category": "餐饮-咖啡厅-咖啡厅",
		"city": "北京市",
		"latitude": 40.048371,
		"longitude": 116.318552,
		"coverUrls": null,
		"distance": 227.24248043522257,
		"linkUrl": null,
		"extParams": "{\"localLife\":\"{\\\"commodityCount\\\":0,\\\"commodityWithPromotionCount\\\":0,\\\"localLifePromotionId\\\":-1,\\\"punishStatus\\\":0,\\\"distributorInvoiceFlag\\\":false}\"}",
		"checkType": 4
	}, {
		"id": 3003773348078261811,
		"title": "晋来顺手擀面(西二旗店)",
		"address": "北京市海淀区西二旗西路燕尚园3号楼",
		"province": "北京市",
		"district": "海淀区",
		"category": "餐饮-粉面馆-粉面馆",
		"city": "北京市",
		"latitude": 40.049763,
		"longitude": 116.313821,
		"coverUrls": null,
		"distance": 216.08677593034037,
		"linkUrl": null,
		"extParams": "{\"localLife\":\"{\\\"commodityCount\\\":0,\\\"commodityWithPromotionCount\\\":0,\\\"localLifePromotionId\\\":-1,\\\"punishStatus\\\":0,\\\"distributorInvoiceFlag\\\":false}\"}",
		"checkType": 4
	}, {
		"id": 3004319747722226226,
		"title": "海底捞火锅(中粮祥云小镇店)",
		"address": "北京市顺义区空港街道安泰大街9号院9号楼4层402",
		"province": "北京市",
		"district": "顺义区",
		"category": "餐饮-火锅-火锅",
		"city": "北京市",
		"latitude": 40.089271,
		"longitude": 116.536009,
		"coverUrls": null,
		"distance": 19209.404606118558,
		"linkUrl": null,
		"extParams": "{\"localLife\":\"{\\\"commodityCount\\\":3,\\\"commodityWithPromotionCount\\\":1,\\\"localLifePromotionId\\\":-1,\\\"punishStatus\\\":0,\\\"distributorInvoiceFlag\\\":false}\",\"typeList\":[1]}",
		"checkType": 4
	}],
	"extParams": "{\"banType\":11,\"punishStatus\":0,\"punishNotice\":null,\"poiPunishNoticeInfo\":{\"displayNotice\":\"门店整改中\",\"touchNotice\":\"门店整改中，不可选择\"}}",
	"requestId": "ELmAgICw9o-sChibBCDCq9CY6DEolvrHhAQ=",
	"pcursor": "1$"
}