{
	"result": 1,
	"locations": [
		{
			"id": 3002180238882447432,
			"title": "领秀新硅谷B区-西1门",
			"address": "北京市海淀区西二旗西路2号西门",
			"province": "北京市",
			"district": "海淀区",
			"category": "基础设施-通行设施-建筑物门",
			"city": "北京市",
			"latitude": 40.05334,
			"longitude": 116.311239,
			"coverUrls": null,
			"distance": 589.525780363591,
			"linkUrl": null,
			"extParams": "{\"localLife\":\"{\\\"commodityCount\\\":0,\\\"commodityWithPromotionCount\\\":0,\\\"localLifePromotionId\\\":-1,\\\"punishStatus\\\":0}\"}",
			"checkType": 0
		},
		{
			"id": 3002224717602726107,
			"title": "忆海小厨宴会厅",
			"address": "北京市海淀区西二旗大街39号1层39-2",
			"province": "北京市",
			"district": "海淀区",
			"category": "酒店-酒店宾馆附属-酒店宾馆附属",
			"city": "北京市",
			"latitude": 40.052439,
			"longitude": 116.310278,
			"coverUrls": null,
			"distance": 594.2104110257804,
			"linkUrl": null,
			"extParams": "{\"localLife\":\"{\\\"commodityCount\\\":0,\\\"commodityWithPromotionCount\\\":0,\\\"localLifePromotionId\\\":-1,\\\"punishStatus\\\":0}\"}",
			"checkType": 4
		},
		{
			"id": 2162200587060510399,
			"title": "北京市海淀区西二旗小学",
			"address": "北京市海淀区西二旗西路二九西二旗智学苑",
			"category": "--",
			"city": "北京市",
			"latitude": 40.050082,
			"longitude": 116.311049,
			"coverUrls": null,
			"distance": 446.3377230173514,
			"linkUrl": null,
			"extParams": "{\"localLife\":\"{\\\"commodityCount\\\":0,\\\"commodityWithPromotionCount\\\":0,\\\"localLifePromotionId\\\":-1,\\\"punishStatus\\\":0}\"}",
			"checkType": 4
		},
		{
			"id": 3002182897821917220,
			"title": "爱视明眼镜(西二旗店)",
			"address": "北京市海淀区西二旗大街益民商城北门1层",
			"province": "北京市",
			"district": "海淀区",
			"category": "购物-专卖店-眼镜店",
			"city": "北京市",
			"latitude": 40.053179,
			"longitude": 116.313517,
			"coverUrls": null,
			"distance": 452.69712451012384,
			"linkUrl": null,
			"extParams": "{\"localLife\":\"{\\\"commodityCount\\\":0,\\\"commodityWithPromotionCount\\\":0,\\\"localLifePromotionId\\\":-1,\\\"punishStatus\\\":0}\"}",
			"checkType": 4
		},
		{
			"id": 3002224735178498229,
			"title": "阳坊大都涮羊肉羊蝎子(西二旗店)",
			"address": "北京市海淀区西二旗大街39-3号",
			"province": "北京市",
			"district": "海淀区",
			"category": "餐饮-火锅-火锅",
			"city": "北京市",
			"latitude": 40.052314,
			"longitude": 116.30988,
			"coverUrls": null,
			"distance": 616.8406645681089,
			"linkUrl": null,
			"extParams": "{\"localLife\":\"{\\\"commodityCount\\\":0,\\\"commodityWithPromotionCount\\\":0,\\\"localLifePromotionId\\\":-1,\\\"punishStatus\\\":0}\"}",
			"checkType": 4
		},
		{
			"id": 3002180238880972894,
			"title": "领秀新硅谷B区69幢",
			"address": "北京市海淀区 ",
			"province": "北京市",
			"district": "海淀区",
			"category": "商务住宅-住宅区-住宅区",
			"city": "北京市",
			"latitude": 40.05365,
			"longitude": 116.311012,
			"coverUrls": null,
			"distance": 627.3674685755046,
			"linkUrl": null,
			"extParams": "{\"localLife\":\"{\\\"commodityCount\\\":0,\\\"commodityWithPromotionCount\\\":0,\\\"localLifePromotionId\\\":-1,\\\"punishStatus\\\":0}\"}",
			"checkType": 4
		},
		{
			"id": 3002224735178498228,
			"title": "朴氏私家火锅(西二旗店)",
			"address": "北京市海淀区西二旗大街39号楼一层39-4-3",
			"province": "北京市",
			"district": "海淀区",
			"category": "餐饮-火锅-火锅",
			"city": "北京市",
			"latitude": 40.05219,
			"longitude": 116.309571,
			"coverUrls": null,
			"distance": 633.9935263471124,
			"linkUrl": null,
			"extParams": "{\"localLife\":\"{\\\"commodityCount\\\":0,\\\"commodityWithPromotionCount\\\":0,\\\"localLifePromotionId\\\":-1,\\\"punishStatus\\\":0}\"}",
			"checkType": 4
		},
		{
			"id": 6724909447937292380,
			"title": "铭科苑小区东门",
			"address": "北京市海淀区西二旗中路",
			"province": "北京市",
			"district": "海淀区",
			"category": "基础设施-通行设施-建筑物门",
			"city": "北京市",
			"latitude": 40.052691,
			"longitude": 116.316325,
			"coverUrls": null,
			"distance": 333.1958958909304,
			"linkUrl": null,
			"extParams": "{\"localLife\":\"{\\\"commodityCount\\\":0,\\\"commodityWithPromotionCount\\\":0,\\\"localLifePromotionId\\\":-1,\\\"punishStatus\\\":0}\"}",
			"checkType": 4
		},
		{
			"id": 3002224735178498227,
			"title": "小木船潮汕牛肉火锅(西二旗店)",
			"address": "北京市海淀区西二旗大街39号1层39-7-118室",
			"province": "北京市",
			"district": "海淀区",
			"category": "餐饮-火锅-火锅",
			"city": "北京市",
			"latitude": 40.051906,
			"longitude": 116.308886,
			"coverUrls": null,
			"distance": 674.7601079571249,
			"linkUrl": null,
			"extParams": "{\"localLife\":\"{\\\"commodityCount\\\":0,\\\"commodityWithPromotionCount\\\":0,\\\"localLifePromotionId\\\":-1,\\\"punishStatus\\\":0}\"}",
			"checkType": 4
		},
		{
			"id": 3002180238882054238,
			"title": "融通高科大厦B座",
			"address": "北京市海淀区西二旗大街39号融通高科大厦",
			"province": "北京市",
			"district": "海淀区",
			"category": "商务住宅-楼宇-楼宇",
			"city": "北京市",
			"latitude": 40.052152,
			"longitude": 116.308961,
			"coverUrls": null,
			"distance": 679.3506839618664,
			"linkUrl": null,
			"extParams": "{\"localLife\":\"{\\\"commodityCount\\\":0,\\\"commodityWithPromotionCount\\\":0,\\\"localLifePromotionId\\\":-1,\\\"punishStatus\\\":0}\"}",
			"checkType": 4
		},
		{
			"id": 3002224771528237190,
			"title": "不眠海 Sober Hi(融通高科大厦店)",
			"address": "北京市海淀区西二旗大街39号弘源高科1层39-4-02号",
			"province": "北京市",
			"district": "海淀区",
			"category": "餐饮-咖啡厅-咖啡厅",
			"city": "北京市",
			"latitude": 40.05232,
			"longitude": 116.308699,
			"coverUrls": null,
			"distance": 707.3290445931601,
			"linkUrl": null,
			"extParams": "{\"localLife\":\"{\\\"commodityCount\\\":0,\\\"commodityWithPromotionCount\\\":0,\\\"localLifePromotionId\\\":-1,\\\"punishStatus\\\":0}\"}",
			"checkType": 4
		},
		{
			"id": 3002224772976451751,
			"title": "北京兄弟幸福搬家公司",
			"address": "北京市海淀区西二旗西路1号院42号楼",
			"province": "北京市",
			"district": "海淀区",
			"category": "生活服务-搬家公司-搬家公司",
			"city": "北京市",
			"latitude": 40.053943,
			"longitude": 116.309881,
			"coverUrls": null,
			"distance": 720.2230824276676,
			"linkUrl": null,
			"extParams": "{\"localLife\":\"{\\\"commodityCount\\\":0,\\\"commodityWithPromotionCount\\\":0,\\\"localLifePromotionId\\\":-1,\\\"punishStatus\\\":0}\"}",
			"checkType": 4
		},
		{
			"id": 3002242036361535673,
			"title": "童安康",
			"address": "北京市海淀区西二旗西路",
			"province": "北京市",
			"district": "海淀区",
			"category": "购物-购物场所-购物场所",
			"city": "北京市",
			"latitude": 40.050248,
			"longitude": 116.313594,
			"coverUrls": null,
			"distance": 235.7797760571959,
			"linkUrl": null,
			"extParams": "{\"localLife\":\"{\\\"commodityCount\\\":0,\\\"commodityWithPromotionCount\\\":0,\\\"localLifePromotionId\\\":-1,\\\"punishStatus\\\":0}\"}",
			"checkType": 4
		},
		{
			"id": 6724909544070990130,
			"title": "麦田房产燕尚园店",
			"address": "北京市北京市海淀区西二旗路燕尚园",
			"province": "北京市",
			"district": "海淀区",
			"category": "生活服务-中介机构-中介机构",
			"city": "北京市",
			"latitude": 40.048754,
			"longitude": 116.313562,
			"coverUrls": null,
			"distance": 252.99973904072925,
			"linkUrl": null,
			"extParams": "{\"localLife\":\"{\\\"commodityCount\\\":0,\\\"commodityWithPromotionCount\\\":0,\\\"localLifePromotionId\\\":-1,\\\"punishStatus\\\":0}\"}",
			"checkType": 4
		},
		{
			"id": 3002041400260698247,
			"title": "喜茶(小米科技园GO店)",
			"address": "西二旗中路33号院2号楼一层004号铺位",
			"province": "北京市",
			"district": "海淀区",
			"category": "--",
			"city": "北京市",
			"latitude": 40.048172,
			"longitude": 116.317804,
			"coverUrls": null,
			"distance": 213.9597860046797,
			"linkUrl": null,
			"extParams": "{\"localLife\":\"{\\\"commodityCount\\\":0,\\\"commodityWithPromotionCount\\\":0,\\\"localLifePromotionId\\\":-1,\\\"punishStatus\\\":0}\"}",
			"checkType": 4
		},
		{
			"id": 3002228315550130398,
			"title": "亚惠美食(西二旗中路店)",
			"address": "北京市海淀区清河街道安宁庄小米科技园h栋",
			"province": "北京市",
			"district": "海淀区",
			"category": "餐饮-小吃快餐-快餐简餐",
			"city": "北京市",
			"latitude": 40.048675,
			"longitude": 116.318479,
			"coverUrls": null,
			"distance": 219.74576725132115,
			"linkUrl": null,
			"extParams": "{\"localLife\":\"{\\\"commodityCount\\\":0,\\\"commodityWithPromotionCount\\\":0,\\\"localLifePromotionId\\\":-1,\\\"punishStatus\\\":0}\"}",
			"checkType": 4
		},
		{
			"id": 3002224735174467729,
			"title": "嗨锅鱼",
			"address": "北京市海淀区小米移动互联网产业园",
			"province": "北京市",
			"district": "海淀区",
			"category": "餐饮-火锅-火锅",
			"city": "北京市",
			"latitude": 40.047541,
			"longitude": 116.317719,
			"coverUrls": null,
			"distance": 269.4999273342567,
			"linkUrl": null,
			"extParams": "{\"localLife\":\"{\\\"commodityCount\\\":0,\\\"commodityWithPromotionCount\\\":0,\\\"localLifePromotionId\\\":-1,\\\"punishStatus\\\":0}\"}",
			"checkType": 4
		},
		{
			"id": 6724909269812453280,
			"title": "晓芹大连海参鲍鱼北京紫竹桥店",
			"address": "北京市海淀区北三环西路47号院友谊社区大门西200米",
			"province": "北京市",
			"district": "海淀区",
			"category": "医疗保健-医药保健销售店-医疗保健用品",
			"city": "北京市",
			"latitude": 39.945308,
			"longitude": 116.309647,
			"coverUrls": null,
			"distance": 11621.715930348311,
			"linkUrl": null,
			"extParams": "{\"localLife\":\"{\\\"commodityCount\\\":0,\\\"commodityWithPromotionCount\\\":0,\\\"localLifePromotionId\\\":-1,\\\"punishStatus\\\":0}\"}",
			"checkType": 4
		},
		{
			"id": 6724909544099600660,
			"title": "劳力士售后门店",
			"address": "北京市海淀区巴沟路2号西单大悦城写字楼7楼702室",
			"province": "北京市",
			"district": "海淀区",
			"category": "生活服务-家政服务-家政服务",
			"city": "北京市",
			"latitude": 39.972948,
			"longitude": 116.294937,
			"coverUrls": null,
			"distance": 8725.638634090783,
			"linkUrl": null,
			"extParams": "{\"localLife\":\"{\\\"commodityCount\\\":0,\\\"commodityWithPromotionCount\\\":0,\\\"localLifePromotionId\\\":-1,\\\"punishStatus\\\":0}\"}",
			"checkType": 4
		},
		{
			"id": 3002242019499057210,
			"title": "看杨公寓",
			"address": "北京市丰台区看杨路",
			"province": "北京市",
			"district": "丰台区",
			"category": "商务住宅-住宅区-住宅区",
			"city": "北京市",
			"latitude": 39.821362,
			"longitude": 116.272889,
			"coverUrls": null,
			"distance": 25659.023073796227,
			"linkUrl": null,
			"extParams": "{\"localLife\":\"{\\\"commodityCount\\\":0,\\\"commodityWithPromotionCount\\\":0,\\\"localLifePromotionId\\\":-1,\\\"punishStatus\\\":0}\"}",
			"checkType": 4
		}
	],
	"extParams": "{\"banType\":11,\"punishStatus\":0,\"punishNotice\":null,\"poiPunishNoticeInfo\":{\"displayNotice\":\"测试1\",\"touchNotice\":\"测试2\"}}",
	"requestId": "EJuBgIDQopiOrAEYwQMgk9z7_rYxKIyNz6EP",
	"pcursor": "1$"
}