{
	"result": 1,
	"locations": [
		{
			"id": 3002242019381551224,
			"title": "北京看看广告有限公司",
			"address": "北京市朝阳区北苑路领地OFFICEB座",
			"province": "北京市",
			"district": "朝阳区",
			"category": "公司企业-公司企业相关-公司企业相关",
			"city": "北京市",
			"latitude": 40.040236,
			"longitude": 116.414283,
			"coverUrls": null,
			"distance": 8413.6944413392,
			"linkUrl": null,
			"extParams": "{\"localLife\":\"{\\\"commodityCount\\\":0,\\\"commodityWithPromotionCount\\\":0,\\\"localLifePromotionId\\\":-1,\\\"punishStatus\\\":0}\"}"
		},
		{
			"id": 3002242019505872996,
			"title": "看丹老年公寓",
			"address": "北京市丰台区永和庄1号院",
			"province": "北京市",
			"district": "丰台区",
			"category": "生活服务-生活服务-生活服务",
			"city": "北京市",
			"latitude": 39.822674,
			"longitude": 116.268639,
			"coverUrls": null,
			"distance": 25581.204120964878,
			"linkUrl": null,
			"extParams": "{\"localLife\":\"{\\\"commodityCount\\\":0,\\\"commodityWithPromotionCount\\\":0,\\\"localLifePromotionId\\\":-1,\\\"punishStatus\\\":0}\"}",
			"checkType": 6
		},
		{
			"id": 3002242019499057210,
			"title": "看杨公寓",
			"address": "北京市丰台区看杨路",
			"province": "北京市",
			"district": "丰台区",
			"category": "商务住宅-住宅区-住宅区",
			"city": "北京市",
			"latitude": 39.821362,
			"longitude": 116.272889,
			"coverUrls": null,
			"distance": 25670.587747340305,
			"linkUrl": null,
			"extParams": "{\"localLife\":\"{\\\"commodityCount\\\":0,\\\"commodityWithPromotionCount\\\":0,\\\"localLifePromotionId\\\":-1,\\\"punishStatus\\\":0}\"}",
			"checkType": 6
		},
		{
			"id": 3002242019510067212,
			"title": "多看",
			"address": "北京市朝阳区天畅园7C7",
			"province": "北京市",
			"district": "朝阳区",
			"category": "公司企业-公司企业相关-公司企业相关",
			"city": "北京市",
			"latitude": 40.033119,
			"longitude": 116.41601,
			"coverUrls": null,
			"distance": 8693.89237682016,
			"linkUrl": null,
			"extParams": "{\"localLife\":\"{\\\"commodityCount\\\":0,\\\"commodityWithPromotionCount\\\":0,\\\"localLifePromotionId\\\":-1,\\\"punishStatus\\\":0}\"}",
			"checkType": 6
		},
		{
			"id": 3002242019499450421,
			"title": "看画廊",
			"address": "北京市西城区文津街1号(故宫北)北海公园内",
			"province": "北京市",
			"district": "西城区",
			"category": "景区-景点-景点",
			"city": "北京市",
			"latitude": 39.926342,
			"longitude": 116.389661,
			"coverUrls": null,
			"distance": 15086.974813314617,
			"linkUrl": null,
			"extParams": "{\"localLife\":\"{\\\"commodityCount\\\":0,\\\"commodityWithPromotionCount\\\":0,\\\"localLifePromotionId\\\":-1,\\\"punishStatus\\\":0}\"}",
			"checkType": 6
		},
		{
			"id": 6724909544066159720,
			"title": "你真好看皮肤管理中心西站食宝街店",
			"address": "北京市海淀区羊坊店路18号光耀东方S座510",
			"province": "北京市",
			"district": "海淀区",
			"category": "丽人-美容SPA-美容SPA",
			"city": "北京市",
			"latitude": 39.898978,
			"longitude": 116.321943,
			"coverUrls": null,
			"distance": 16779.04414930269,
			"linkUrl": null,
			"extParams": "{\"localLife\":\"{\\\"commodityCount\\\":0,\\\"commodityWithPromotionCount\\\":0,\\\"localLifePromotionId\\\":-1,\\\"punishStatus\\\":0}\"}",
			"checkType": 6
		},
		{
			"id": 3002242019506954426,
			"title": "北京看丹红快捷酒店",
			"address": "北京市丰台区丰台东路造甲村113号(地铁九号线丰台南路站东300米路北,距新天坛医院1500米)",
			"province": "北京市",
			"district": "丰台区",
			"category": "酒店-酒店-酒店",
			"city": "北京市",
			"latitude": 39.843662,
			"longitude": 116.300298,
			"coverUrls": null,
			"distance": 22963.51106711357,
			"linkUrl": null,
			"extParams": "{\"localLife\":\"{\\\"commodityCount\\\":0,\\\"commodityWithPromotionCount\\\":0,\\\"localLifePromotionId\\\":-1,\\\"punishStatus\\\":0}\"}",
			"checkType": 6
		},
		{
			"id": 6724909490712411970,
			"title": "北京市公安局丰台分局看丹派出所榆树庄社区警务工作室",
			"address": "北京市丰台区刘庄子路",
			"province": "北京市",
			"district": "丰台区",
			"category": "政府机构及社会团体-公检法机构-公检法机构",
			"city": "北京市",
			"latitude": 39.849278,
			"longitude": 116.247583,
			"coverUrls": null,
			"distance": 23054.11155874095,
			"linkUrl": null,
			"extParams": "{\"localLife\":\"{\\\"commodityCount\\\":0,\\\"commodityWithPromotionCount\\\":0,\\\"localLifePromotionId\\\":-1,\\\"punishStatus\\\":0}\"}",
			"checkType": 6
		},
		{
			"id": 3002242019506790597,
			"title": "稻香村(看丹桥店)",
			"address": "北京市丰台区新华街七里10号楼1层",
			"province": "北京市",
			"district": "丰台区",
			"category": "餐饮-面包甜点-甜品",
			"city": "北京市",
			"latitude": 39.842425,
			"longitude": 116.286151,
			"coverUrls": null,
			"distance": 23203.05194322686,
			"linkUrl": null,
			"extParams": "{\"localLife\":\"{\\\"commodityCount\\\":0,\\\"commodityWithPromotionCount\\\":0,\\\"localLifePromotionId\\\":-1,\\\"punishStatus\\\":0}\"}",
			"checkType": 6
		},
		{
			"id": 3002242019506626567,
			"title": "看丹桥北[公交站]",
			"address": "969路,546路,477路,夜36路,354路,845路,137路,602路,83路,351路,627路",
			"province": "北京市",
			"district": "丰台区",
			"category": "基础设施-交通设施-公交车站",
			"city": "北京市",
			"latitude": 39.841969,
			"longitude": 116.285305,
			"coverUrls": null,
			"distance": 23261.517935105738,
			"linkUrl": null,
			"extParams": "{\"localLife\":\"{\\\"commodityCount\\\":0,\\\"commodityWithPromotionCount\\\":0,\\\"localLifePromotionId\\\":-1,\\\"punishStatus\\\":0}\"}",
			"checkType": 6
		},
		{
			"id": 6724909355511388720,
			"title": "千禧百旺超市看丹桥店南门",
			"address": "北京市丰台区丰台南路",
			"province": "北京市",
			"district": "丰台区",
			"category": "基础设施-通行设施-建筑物门",
			"city": "北京市",
			"latitude": 39.8399921,
			"longitude": 116.28937702,
			"coverUrls": null,
			"distance": 23443.49459831767,
			"linkUrl": null,
			"extParams": "{\"localLife\":\"{\\\"commodityCount\\\":0,\\\"commodityWithPromotionCount\\\":0,\\\"localLifePromotionId\\\":-1,\\\"punishStatus\\\":0}\"}",
			"checkType": 6
		},
		{
			"id": 6724909418207735550,
			"title": "自行车租赁点看丹路",
			"address": "北京市丰台区看丹桥西冠正南方向90米",
			"province": "北京市",
			"district": "丰台区",
			"category": "生活服务-生活服务-生活服务",
			"city": "北京市",
			"latitude": 39.839632,
			"longitude": 116.279677,
			"coverUrls": null,
			"distance": 23578.37140312851,
			"linkUrl": null,
			"extParams": "{\"localLife\":\"{\\\"commodityCount\\\":0,\\\"commodityWithPromotionCount\\\":0,\\\"localLifePromotionId\\\":-1,\\\"punishStatus\\\":0}\"}",
			"checkType": 6
		},
		{
			"id": 3002242019499352244,
			"title": "看丹村",
			"address": "北京市丰台区 ",
			"province": "北京市",
			"district": "丰台区",
			"category": "地名地址-地名地址-地名地址",
			"city": "北京市",
			"latitude": 39.836836,
			"longitude": 116.270318,
			"coverUrls": null,
			"distance": 24003.7788139377,
			"linkUrl": null,
			"extParams": "{\"localLife\":\"{\\\"commodityCount\\\":0,\\\"commodityWithPromotionCount\\\":0,\\\"localLifePromotionId\\\":-1,\\\"punishStatus\\\":0}\"}",
			"checkType": 6
		},
		{
			"id": 6724909276598686690,
			"title": "北京市公安局丰台分局看丹派出所户籍室",
			"address": "北京市丰台区看丹街796号公安局丰台分局看丹派出所附近",
			"province": "北京市",
			"district": "丰台区",
			"category": "政府机构及社会团体-公检法机构-公检法机构",
			"city": "北京市",
			"latitude": 39.835421,
			"longitude": 116.270422,
			"coverUrls": null,
			"distance": 24157.606818987202,
			"linkUrl": null,
			"extParams": "{\"localLife\":\"{\\\"commodityCount\\\":0,\\\"commodityWithPromotionCount\\\":0,\\\"localLifePromotionId\\\":-1,\\\"punishStatus\\\":0}\"}",
			"checkType": 6
		},
		{
			"id": 3002242019499450420,
			"title": "看丹派出所",
			"address": "北京市丰台区看丹街410号",
			"province": "北京市",
			"district": "丰台区",
			"category": "政府机构及社会团体-公检法机构-公检法机构",
			"city": "北京市",
			"latitude": 39.835348,
			"longitude": 116.270574,
			"coverUrls": null,
			"distance": 24163.52657949138,
			"linkUrl": null,
			"extParams": "{\"localLife\":\"{\\\"commodityCount\\\":0,\\\"commodityWithPromotionCount\\\":0,\\\"localLifePromotionId\\\":-1,\\\"punishStatus\\\":0}\"}",
			"checkType": 0
		}
	],
	"extParams": "{\"banType\":11,\"punishStatus\":0,\"punishNotice\":null,\"poiPunishNoticeInfo\":{\"displayNotice\":\"测试1\",\"touchNotice\":\"测试2\"}}",
	"requestId": "EJuBgIDQopiOrAEYvQMgiseE_7YxKIr-8NME",
	"pcursor": "1$"
}