{
	"result": 1,
	"locations": [
		{
			"id": 6724909544070990130,
			"title": "麦田房产燕尚园店",
			"address": "北京市北京市海淀区西二旗路燕尚园",
			"province": "北京市",
			"district": "海淀区",
			"category": "生活服务-中介机构-中介机构",
			"city": "北京市",
			"latitude": 40.048754,
			"longitude": 116.313562,
			"coverUrls": null,
			"distance": 510.43299508171737,
			"linkUrl": null,
			"extParams": "{\"localLife\":\"{\\\"localLifePromotionId\\\":-1}\"}"
		},
		{
			"id": 2162200587060510399,
			"title": "北京市海淀区西二旗小学",
			"address": "北京市海淀区西二旗西路二九西二旗智学苑",
			"category": "--",
			"city": "北京市",
			"latitude": 40.050082,
			"longitude": 116.311049,
			"coverUrls": null,
			"distance": 513.3795844030228,
			"linkUrl": null,
			"extParams": "{\"localLife\":\"{\\\"localLifePromotionId\\\":-1}\"}",
			"checkType": 5
		},
		{
			"id": 3002224717602431110,
			"title": "北京图腾之家度假别墅(6号店)",
			"address": "北京市海淀区西二旗西路2号院-36楼",
			"province": "北京市",
			"district": "海淀区",
			"category": "酒店-经济型酒店-经济型酒店",
			"city": "北京市",
			"latitude": 40.054506,
			"longitude": 116.30989,
			"coverUrls": null,
			"distance": 517.5460980951557,
			"linkUrl": null,
			"extParams": "{\"localLife\":\"{\\\"localLifePromotionId\\\":-1}\"}",
			"checkType": 5
		},
		{
			"id": 3002224735178498228,
			"title": "朴氏私家火锅(西二旗店)",
			"address": "北京市海淀区西二旗大街39号楼一层39-4-3",
			"province": "北京市",
			"district": "海淀区",
			"category": "餐饮-火锅-火锅",
			"city": "北京市",
			"latitude": 40.05219,
			"longitude": 116.309571,
			"coverUrls": null,
			"distance": 527.600576535807,
			"linkUrl": null,
			"extParams": "{\"localLife\":\"{\\\"localLifePromotionId\\\":-1}\"}",
			"checkType": 5
		},
		{
			"id": 3002228315550130398,
			"title": "亚惠美食(西二旗中路店)",
			"address": "北京市海淀区清河街道安宁庄小米科技园h栋",
			"province": "北京市",
			"district": "海淀区",
			"category": "餐饮-小吃快餐-快餐简餐",
			"city": "北京市",
			"latitude": 40.048675,
			"longitude": 116.318479,
			"coverUrls": null,
			"distance": 542.4665046608578,
			"linkUrl": null,
			"extParams": "{\"localLife\":\"{\\\"localLifePromotionId\\\":-1}\"}",
			"checkType": 5
		},
		{
			"id": 3002041400260698247,
			"title": "喜茶(小米科技园GO店)",
			"address": "西二旗中路33号院2号楼一层004号铺位",
			"province": "北京市",
			"district": "海淀区",
			"category": "--",
			"city": "北京市",
			"latitude": 40.048172,
			"longitude": 116.317804,
			"coverUrls": null,
			"distance": 572.3973287385415,
			"linkUrl": null,
			"extParams": "{\"localLife\":\"{\\\"localLifePromotionId\\\":-1}\"}",
			"checkType": 5
		}
	],
	"extParams": "{\"banType\":11,\"punishStatus\":0,\"punishNotice\":null,\"poiPunishNoticeInfo\":{\"displayNotice\":\"测试1\",\"touchNotice\":\"测试2\"}}",
	"requestId": "EJuBgIDQopiOrAEYxgMg-s3z-bYxKNWL-tcD",
	"pcursor": "1$"
}