{
	"result": 1,
	"locations": [
		{
			"id": 3003663241131074363,
			"title": "北京市",
			"address": "北京市",
			"category": null,
			"latitude": 40.045132,
			"longitude": 116.375,
			"coverUrls": [],
			"distance": 5126.0,
			"linkUrl": null,
			"extParams": null,
			"traceContext": "{\"sourceType\":2}"
		},
		{
			"id": 3002745839566856731,
			"title": "小米移动互联网产业园",
			"address": "北京市海淀区西二旗中路33号",
			"category": null,
			"latitude": 40.047852,
			"longitude": 116.31729,
			"coverUrls": [],
			"distance": 594.0,
			"linkUrl": null,
			"extParams": null
		},
		{
			"id": 6724909544070990130,
			"title": "麦田房产燕尚园店",
			"address": "北京市北京市海淀区西二旗路燕尚园",
			"category": null,
			"city": "北京市",
			"latitude": 40.048754,
			"longitude": 116.313562,
			"coverUrls": [],
			"distance": 510.0,
			"linkUrl": null,
			"extParams": null,
			"traceContext": "{\"sourceType\":2}"
		},
		{
			"id": 3002224735178498229,
			"title": "阳坊大都涮羊肉羊蝎子(西二旗店)",
			"address": "北京市海淀区西二旗大街39-3号",
			"category": null,
			"city": "北京市",
			"latitude": 40.052314,
			"longitude": 116.30988,
			"coverUrls": [],
			"distance": 499.0,
			"linkUrl": null,
			"extParams": null,
			"traceContext": "{\"sourceType\":2}"
		},
		{
			"id": 3002224717602726107,
			"title": "忆海小厨宴会厅",
			"address": "北京市海淀区西二旗大街39号1层39-2",
			"category": null,
			"city": "北京市",
			"latitude": 40.052439,
			"longitude": 116.310278,
			"coverUrls": [],
			"distance": 463.0,
			"linkUrl": null,
			"extParams": null,
			"traceContext": "{\"sourceType\":2}"
		},
		{
			"id": 3002180238882447432,
			"title": "领秀新硅谷B区-西1门",
			"address": "北京市海淀区西二旗西路2号西门",
			"category": null,
			"city": "北京市",
			"latitude": 40.05334,
			"longitude": 116.311239,
			"coverUrls": [],
			"distance": 378.0,
			"linkUrl": null,
			"extParams": null,
			"traceContext": "{\"sourceType\":2}"
		},
		{
			"id": 3003663617408869368,
			"title": "西二旗",
			"address": "北京市海淀区 ",
			"category": null,
			"latitude": 40.053902,
			"longitude": 116.313599,
			"coverUrls": [],
			"distance": 199.0,
			"linkUrl": null,
			"extParams": null,
			"traceContext": "{\"sourceType\":2}"
		},
		{
			"id": 3003966415228904341,
			"title": "元中心",
			"address": "北京市海淀区西二旗中路29号",
			"category": null,
			"latitude": 40.049952,
			"longitude": 116.316311,
			"coverUrls": [],
			"distance": 349.0,
			"linkUrl": null,
			"extParams": null,
			"traceContext": "{\"sourceType\":2}"
		},
		{
			"id": 3003787735437747098,
			"title": "铭科苑小区",
			"address": "北京市海淀区安宁庄西路29号",
			"category": null,
			"latitude": 40.051892,
			"longitude": 116.31491,
			"coverUrls": [],
			"distance": 144.0,
			"linkUrl": null,
			"extParams": null,
			"traceContext": "{\"sourceType\":2}"
		},
		{
			"id": 3003965509846836028,
			"title": "空研大院",
			"address": "北京市海淀区安宁庄路11号",
			"category": null,
			"latitude": 40.055042,
			"longitude": 116.321579,
			"coverUrls": [],
			"distance": 549.0,
			"linkUrl": null,
			"extParams": null,
			"traceContext": "{\"sourceType\":2}"
		},
		{
			"id": 3002855775763210894,
			"title": "西二旗智学苑",
			"address": "北京市海淀区西二旗西路29号",
			"category": null,
			"latitude": 40.050777,
			"longitude": 116.310942,
			"coverUrls": [],
			"distance": 475.0,
			"linkUrl": null,
			"extParams": null,
			"traceContext": "{\"sourceType\":2}"
		},
		{
			"id": 3002349344307323438,
			"title": "领秀新硅谷AB区",
			"address": "北京市海淀区西二旗西路2号院",
			"category": null,
			"latitude": 40.055473,
			"longitude": 116.311496,
			"coverUrls": [],
			"distance": 445.0,
			"linkUrl": null,
			"extParams": null,
			"traceContext": "{\"sourceType\":2}"
		},
		{
			"id": 3003673826650825532,
			"title": "益民市场",
			"address": "北京市海淀区西二旗大街与西二旗西路交叉口东南100米(凯蒂幼儿园对面)",
			"category": null,
			"latitude": 40.052373,
			"longitude": 116.312991,
			"coverUrls": [],
			"distance": 239.0,
			"linkUrl": null,
			"extParams": null,
			"traceContext": "{\"sourceType\":2}"
		},
		{
			"id": 3002349344307258078,
			"title": "领秀新硅谷B区",
			"address": "北京市海淀区-西二旗西路2号院",
			"category": null,
			"latitude": 40.054628,
			"longitude": 116.312257,
			"coverUrls": [],
			"distance": 338.0,
			"linkUrl": null,
			"extParams": null,
			"traceContext": "{\"sourceType\":2}"
		},
		{
			"id": 3002347138910855733,
			"title": "北京外国语大学北外附属外国语学校",
			"address": "北京市海淀区西二旗大街19号",
			"category": null,
			"latitude": 40.058149,
			"longitude": 116.320187,
			"coverUrls": [],
			"distance": 685.0,
			"linkUrl": null,
			"extParams": null,
			"traceContext": "{\"sourceType\":2}"
		},
		{
			"id": 3003100079596708139,
			"title": "良盛大厦",
			"address": "北京市海淀区领秀新硅谷安宁庄路11号院",
			"category": null,
			"latitude": 40.054147,
			"longitude": 116.315623,
			"coverUrls": [],
			"distance": 121.0,
			"linkUrl": null,
			"extParams": null,
			"traceContext": "{\"sourceType\":2}"
		},
		{
			"id": 3002776910492934768,
			"title": "北京同仁堂京西西二旗药店",
			"address": "北京市海淀区西二旗西路2号院85号楼1层单元03",
			"category": null,
			"latitude": 40.05371,
			"longitude": 116.313589,
			"coverUrls": [],
			"distance": 191.0,
			"linkUrl": null,
			"extParams": null,
			"traceContext": "{\"sourceType\":2}"
		},
		{
			"id": 2162200586969856001,
			"title": "西二旗中路",
			"address": "北京市海淀区",
			"category": null,
			"city": "北京市",
			"latitude": 40.053192,
			"longitude": 116.31601,
			"coverUrls": [],
			"distance": 33.0,
			"linkUrl": null,
			"extParams": null,
			"traceContext": "{\"sourceType\":2}"
		},
		{
			"id": 3002855775762522647,
			"title": "天信亮酒店会议中心",
			"address": "北京市海淀区安宁庄路11号29号楼B座",
			"category": null,
			"latitude": 40.054682,
			"longitude": 116.317097,
			"coverUrls": [],
			"distance": 218.0,
			"linkUrl": null,
			"extParams": null,
			"traceContext": "{\"sourceType\":2}"
		},
		{
			"id": 3003668620545008573,
			"title": "领秀硅谷",
			"address": "北京市海淀区西二旗中路6号",
			"category": null,
			"latitude": 40.056676,
			"longitude": 116.316609,
			"coverUrls": [],
			"distance": 410.0,
			"linkUrl": null,
			"extParams": null,
			"traceContext": "{\"sourceType\":2}"
		},
		{
			"id": 3002813448220058267,
			"title": "中关村科技园上地北区",
			"address": "北京市海淀区上地十街(西二旗地铁站A1北入口步行160米)",
			"category": null,
			"latitude": 40.053297,
			"longitude": 116.303792,
			"coverUrls": [],
			"distance": 1011.0,
			"linkUrl": null,
			"extParams": null,
			"traceContext": "{\"sourceType\":2}"
		},
		{
			"id": 3002782908056478260,
			"title": "清河街道",
			"address": "北京市海淀区",
			"category": null,
			"latitude": 40.041866,
			"longitude": 116.322416,
			"coverUrls": [],
			"distance": 1370.0,
			"linkUrl": null,
			"extParams": null,
			"traceContext": "{\"sourceType\":2}"
		},
		{
			"id": 3003657343058420731,
			"title": "上地",
			"address": "北京市海淀区",
			"category": null,
			"latitude": 40.03297,
			"longitude": 116.32021,
			"coverUrls": [],
			"distance": 2266.0,
			"linkUrl": null,
			"extParams": null,
			"traceContext": "{\"sourceType\":2}"
		},
		{
			"id": 3002242019381551224,
			"title": "北京看看广告有限公司",
			"address": "北京市朝阳区北苑路领地OFFICEB座",
			"category": null,
			"city": "北京市",
			"latitude": 40.040236,
			"longitude": 116.414283,
			"coverUrls": [],
			"distance": 8515.0,
			"linkUrl": null,
			"extParams": null,
			"traceContext": "{\"sourceType\":2}"
		},
		{
			"id": 6724909544100894840,
			"title": "东北大馅包子馅饼",
			"address": "北京市朝阳区十八里店镇西直河中街百家福超市北侧",
			"category": null,
			"city": "北京市",
			"latitude": 39.847807,
			"longitude": 116.525965,
			"coverUrls": [],
			"distance": 29022.0,
			"linkUrl": null,
			"extParams": null,
			"traceContext": "{\"sourceType\":2}"
		}
	],
	"extParams": "{\"cityName\":\"北京市\"}",
	"requestId": "EJmBgICAy5iOrAEYwAIgqKyH17YxKLT29a0B",
	"pcursor": "1$40.053052,116.315666"
}