{
	"result": 1,
	"locations": [
		{
			"id": 3002224771528237190,
			"title": "不眠海 Sober Hi(融通高科大厦店)",
			"address": "北京市海淀区西二旗大街39号弘源高科1层39-4-02号",
			"province": "北京市",
			"district": "海淀区",
			"category": "餐饮-咖啡厅-咖啡厅",
			"city": "北京市",
			"latitude": 40.05232,
			"longitude": 116.308699,
			"coverUrls": null,
			"distance": 598.6024786813923,
			"linkUrl": null,
			"extParams": "{\"localLife\":\"{\\\"commodityCount\\\":0,\\\"commodityWithPromotionCount\\\":0,\\\"localLifePromotionId\\\":-1,\\\"punishStatus\\\":0}\"}"
		},
		{
			"id": 6724909395754165220,
			"title": "中国邮政储蓄银行北京海淀区农业大学支行",
			"address": "北京市海淀区圆明园西路15号",
			"province": "北京市",
			"district": "海淀区",
			"category": "金融保险-银行-银行",
			"city": "北京市",
			"latitude": 40.022879,
			"longitude": 116.280408,
			"coverUrls": null,
			"distance": 4502.1168178062335,
			"linkUrl": null,
			"extParams": "{\"localLife\":\"{\\\"commodityCount\\\":0,\\\"commodityWithPromotionCount\\\":0,\\\"localLifePromotionId\\\":-1,\\\"punishStatus\\\":0}\"}",
			"checkType": 6
		},
		{
			"id": 6724909265968174830,
			"title": "七一一海淀辉煌时代大厦店",
			"address": "北京市海淀区北四环西路56号辉煌时代大厦107号",
			"province": "北京市",
			"district": "海淀区",
			"category": "购物-便利店-便利店",
			"city": "北京市",
			"latitude": 39.9844,
			"longitude": 116.312332,
			"coverUrls": null,
			"distance": 7639.536420658992,
			"linkUrl": null,
			"extParams": "{\"localLife\":\"{\\\"commodityCount\\\":0,\\\"commodityWithPromotionCount\\\":0,\\\"localLifePromotionId\\\":-1,\\\"punishStatus\\\":0}\"}",
			"checkType": 6
		},
		{
			"id": 6724909479720954130,
			"title": "创富港海龙大厦服分中心",
			"address": "北京市海淀区中关村大街1号海龙大厦13层1326室",
			"province": "北京市",
			"district": "海淀区",
			"category": "公司企业-公司企业相关-公司企业相关",
			"city": "北京市",
			"latitude": 39.98342,
			"longitude": 116.31546,
			"coverUrls": null,
			"distance": 7743.255656717896,
			"linkUrl": null,
			"extParams": "{\"localLife\":\"{\\\"commodityCount\\\":0,\\\"commodityWithPromotionCount\\\":0,\\\"localLifePromotionId\\\":-1,\\\"punishStatus\\\":0}\"}",
			"checkType": 6
		},
		{
			"id": 6724909544095127050,
			"title": "北京广播电视大学海淀分校",
			"address": "北京市海淀区北四环中路271号",
			"province": "北京市",
			"district": "海淀区",
			"category": "教育培训-学校-成人教育",
			"city": "北京市",
			"latitude": 39.987231,
			"longitude": 116.345475,
			"coverUrls": null,
			"distance": 7747.157903295549,
			"linkUrl": null,
			"extParams": "{\"localLife\":\"{\\\"commodityCount\\\":0,\\\"commodityWithPromotionCount\\\":0,\\\"localLifePromotionId\\\":-1,\\\"punishStatus\\\":0}\"}",
			"checkType": 6
		},
		{
			"id": 6724909459337373180,
			"title": "海淀区世宁大厦克科技有限公司",
			"address": "北京市海淀区学院路35号附近",
			"province": "北京市",
			"district": "海淀区",
			"category": "公司企业-公司-公司",
			"city": "北京市",
			"latitude": 39.98572138,
			"longitude": 116.35220297,
			"coverUrls": null,
			"distance": 8108.115554709517,
			"linkUrl": null,
			"extParams": "{\"localLife\":\"{\\\"commodityCount\\\":0,\\\"commodityWithPromotionCount\\\":0,\\\"localLifePromotionId\\\":-1,\\\"punishStatus\\\":0}\"}",
			"checkType": 6
		},
		{
			"id": 6724909383400627920,
			"title": "北京市公安局公安交通管理局海淀交通支队中关村大队",
			"address": "北京市海淀区中关村东路98号",
			"province": "北京市",
			"district": "海淀区",
			"category": "政府机构及社会团体-交通车辆管理-交通车辆管理",
			"city": "北京市",
			"latitude": 39.978592,
			"longitude": 116.334501,
			"coverUrls": null,
			"distance": 8434.06508076378,
			"linkUrl": null,
			"extParams": "{\"localLife\":\"{\\\"commodityCount\\\":0,\\\"commodityWithPromotionCount\\\":0,\\\"localLifePromotionId\\\":-1,\\\"punishStatus\\\":0}\"}",
			"checkType": 6
		},
		{
			"id": 3002224713378111609,
			"title": "海底捞火锅(大屯路店)",
			"address": "北京市朝阳区大屯北路312号金泉美食宫4楼",
			"province": "北京市",
			"district": "朝阳区",
			"category": "餐饮-火锅-火锅",
			"city": "北京市",
			"latitude": 40.006083,
			"longitude": 116.412817,
			"coverUrls": null,
			"distance": 9783.18948860241,
			"linkUrl": null,
			"extParams": "{\"localLife\":\"{\\\"commodityCount\\\":0,\\\"commodityWithPromotionCount\\\":0,\\\"localLifePromotionId\\\":-1,\\\"punishStatus\\\":0}\"}",
			"checkType": 6
		},
		{
			"id": 6724909392185540500,
			"title": "世纪金源大饭店海鲜自助餐厅远大路店",
			"address": "北京市海淀区板井路69号世纪金源大饭店内",
			"province": "北京市",
			"district": "海淀区",
			"category": "餐饮-西餐-西餐",
			"city": "北京市",
			"latitude": 39.95324692,
			"longitude": 116.28068472,
			"coverUrls": null,
			"distance": 11491.584804451122,
			"linkUrl": null,
			"extParams": "{\"localLife\":\"{\\\"commodityCount\\\":0,\\\"commodityWithPromotionCount\\\":0,\\\"localLifePromotionId\\\":-1,\\\"punishStatus\\\":0}\"}",
			"checkType": 6
		},
		{
			"id": 6724909269812453280,
			"title": "晓芹大连海参鲍鱼北京紫竹桥店",
			"address": "北京市海淀区北三环西路47号院友谊社区大门西200米",
			"province": "北京市",
			"district": "海淀区",
			"category": "医疗保健-医药保健销售店-医疗保健用品",
			"city": "北京市",
			"latitude": 39.945308,
			"longitude": 116.309647,
			"coverUrls": null,
			"distance": 11992.32476288206,
			"linkUrl": null,
			"extParams": "{\"localLife\":\"{\\\"commodityCount\\\":0,\\\"commodityWithPromotionCount\\\":0,\\\"localLifePromotionId\\\":-1,\\\"punishStatus\\\":0}\"}",
			"checkType": 6
		},
		{
			"id": 6724909390154589870,
			"title": "正院大宅门珍味鲜港式海鲜火锅",
			"address": "北京市海淀区首体南路甲20号正院大宅门3层",
			"province": "北京市",
			"district": "海淀区",
			"category": "餐饮-火锅-火锅",
			"city": "北京市",
			"latitude": 39.933418,
			"longitude": 116.326589,
			"coverUrls": null,
			"distance": 13336.053591501075,
			"linkUrl": null,
			"extParams": "{\"localLife\":\"{\\\"commodityCount\\\":0,\\\"commodityWithPromotionCount\\\":0,\\\"localLifePromotionId\\\":-1,\\\"punishStatus\\\":0}\"}",
			"checkType": 6
		},
		{
			"id": 6724909543919698470,
			"title": "晓芹大连海参鲍鱼北京三元桥店",
			"address": "北京市朝阳区北三环东路2号(港中旅大厦北)",
			"province": "北京市",
			"district": "朝阳区",
			"category": "购物-购物场所-购物场所",
			"city": "北京市",
			"latitude": 39.959378,
			"longitude": 116.451139,
			"coverUrls": null,
			"distance": 15545.52908692722,
			"linkUrl": null,
			"extParams": "{\"localLife\":\"{\\\"commodityCount\\\":0,\\\"commodityWithPromotionCount\\\":0,\\\"localLifePromotionId\\\":-1,\\\"punishStatus\\\":0}\"}",
			"checkType": 6
		},
		{
			"id": 6724909544058679940,
			"title": "海育大厦地上停车场入口",
			"address": "北京市海淀区复兴路21号",
			"province": "北京市",
			"district": "海淀区",
			"category": "基础设施-交通设施-停车场",
			"city": "北京市",
			"latitude": 39.909508,
			"longitude": 116.310794,
			"coverUrls": null,
			"distance": 15967.779743349127,
			"linkUrl": null,
			"extParams": "{\"localLife\":\"{\\\"commodityCount\\\":0,\\\"commodityWithPromotionCount\\\":0,\\\"localLifePromotionId\\\":-1,\\\"punishStatus\\\":0}\"}",
			"checkType": 6
		},
		{
			"id": 6724909342062442110,
			"title": "珠海驿联充电站天恒大厦",
			"address": "北京市东城区东直门外大街46号天恒大厦地面停车场内",
			"province": "北京市",
			"district": "东城区",
			"category": "汽车-充电站-充电站",
			"city": "北京市",
			"latitude": 39.940691,
			"longitude": 116.4368,
			"coverUrls": null,
			"distance": 16205.178622734595,
			"linkUrl": null,
			"extParams": "{\"localLife\":\"{\\\"commodityCount\\\":0,\\\"commodityWithPromotionCount\\\":0,\\\"localLifePromotionId\\\":-1,\\\"punishStatus\\\":0}\"}",
			"checkType": 6
		},
		{
			"id": 6724909440215302700,
			"title": "海澜之家北京西城区华威大厦店",
			"address": "北京市西城区西单北大街130号华威大厦三层",
			"province": "北京市",
			"district": "西城区",
			"category": "购物-专卖店-专卖店",
			"city": "北京市",
			"latitude": 39.91148049,
			"longitude": 116.37441097,
			"coverUrls": null,
			"distance": 16519.63497739995,
			"linkUrl": null,
			"extParams": "{\"localLife\":\"{\\\"commodityCount\\\":0,\\\"commodityWithPromotionCount\\\":0,\\\"localLifePromotionId\\\":-1,\\\"punishStatus\\\":0}\"}",
			"checkType": 6
		},
		{
			"id": 6724909481020392910,
			"title": "银海之星大悦城西单店",
			"address": "北京市西城区西单北大街131号大悦城(西单店)F3层",
			"province": "北京市",
			"district": "西城区",
			"category": "基础设施-室内设施-室内设施",
			"city": "北京市",
			"latitude": 39.910876,
			"longitude": 116.372783,
			"coverUrls": null,
			"distance": 16542.37388571807,
			"linkUrl": null,
			"extParams": "{\"localLife\":\"{\\\"commodityCount\\\":0,\\\"commodityWithPromotionCount\\\":0,\\\"localLifePromotionId\\\":-1,\\\"punishStatus\\\":0}\"}",
			"checkType": 6
		},
		{
			"id": 6724909544077033850,
			"title": "兴海大厦停车场出口",
			"address": "北京市丰台区莲花池西里9号",
			"province": "北京市",
			"district": "丰台区",
			"category": "基础设施-交通设施-停车场",
			"city": "北京市",
			"latitude": 39.889741,
			"longitude": 116.308808,
			"coverUrls": null,
			"distance": 18169.91009248024,
			"linkUrl": null,
			"extParams": "{\"localLife\":\"{\\\"commodityCount\\\":0,\\\"commodityWithPromotionCount\\\":0,\\\"localLifePromotionId\\\":-1,\\\"punishStatus\\\":0}\"}",
			"checkType": 6
		},
		{
			"id": 6724909544097252570,
			"title": "沛纳海旗舰店金格大厦",
			"address": "北京市东城区东长安街1号东方广场E1座8层830号DF",
			"province": "北京市",
			"district": "东城区",
			"category": "购物-购物场所-购物场所",
			"city": "北京市",
			"latitude": 39.907663,
			"longitude": 116.418626,
			"coverUrls": null,
			"distance": 18394.531961793746,
			"linkUrl": null,
			"extParams": "{\"localLife\":\"{\\\"commodityCount\\\":0,\\\"commodityWithPromotionCount\\\":0,\\\"localLifePromotionId\\\":-1,\\\"punishStatus\\\":0}\"}",
			"checkType": 6
		},
		{
			"id": 6724909364226573880,
			"title": "星海宏昌大厦地上停车场",
			"address": "北京市东城区夕照寺中街",
			"province": "北京市",
			"district": "东城区",
			"category": "基础设施-交通设施-停车场",
			"city": "北京市",
			"latitude": 39.889302,
			"longitude": 116.441351,
			"coverUrls": null,
			"distance": 21125.95259558009,
			"linkUrl": null,
			"extParams": "{\"localLife\":\"{\\\"commodityCount\\\":0,\\\"commodityWithPromotionCount\\\":0,\\\"localLifePromotionId\\\":-1,\\\"punishStatus\\\":0}\"}",
			"checkType": 6
		},
		{
			"id": 6724909494807950190,
			"title": "蟹状元大闸蟹海鲜大礼包东城店",
			"address": "北京市东城区西花市花市大街8号南里西区9号楼1层106东边部分(地铁磁器口站F1出口往东50米)",
			"province": "北京市",
			"district": "东城区",
			"category": "购物-购物场所-购物场所",
			"city": "北京市",
			"latitude": 39.893656,
			"longitude": 116.422974,
			"coverUrls": null,
			"distance": 19945.059255209537,
			"linkUrl": null,
			"extParams": "{\"localLife\":\"{\\\"commodityCount\\\":0,\\\"commodityWithPromotionCount\\\":0,\\\"localLifePromotionId\\\":-1,\\\"punishStatus\\\":0}\"}",
			"checkType": 6
		}
	],
	"extParams": "{\"banType\":11,\"punishStatus\":0,\"punishNotice\":null,\"poiPunishNoticeInfo\":{\"displayNotice\":\"测试1\",\"touchNotice\":\"测试2\"}}",
	"requestId": "EJuBgIDQopiOrAEYvQMgopP1_bYxKOiQsZAN",
	"pcursor": "1$"
}