{
	"result": 1,
	"locations": [
		{
			"id": 3002180238882447432,
			"title": "领秀新硅谷B区-西1门",
			"address": "北京市海淀区西二旗西路2号西门",
			"province": "北京市",
			"district": "海淀区",
			"category": "基础设施-通行设施-建筑物门",
			"city": "北京市",
			"latitude": 40.05334,
			"longitude": 116.311239,
			"coverUrls": null,
			"distance": 570.7739640960503,
			"linkUrl": null,
			"extParams": "{\"localLife\":\"{\\\"commodityCount\\\":0,\\\"commodityWithPromotionCount\\\":0,\\\"localLifePromotionId\\\":-1,\\\"punishStatus\\\":0}\"}"
		},
		{
			"id": 3002224717602726107,
			"title": "忆海小厨宴会厅",
			"address": "北京市海淀区西二旗大街39号1层39-2",
			"province": "北京市",
			"district": "海淀区",
			"category": "酒店-酒店宾馆附属-酒店宾馆附属",
			"city": "北京市",
			"latitude": 40.052439,
			"longitude": 116.310278,
			"coverUrls": null,
			"distance": 587.9203508255894,
			"linkUrl": null,
			"extParams": "{\"localLife\":\"{\\\"commodityCount\\\":0,\\\"commodityWithPromotionCount\\\":0,\\\"localLifePromotionId\\\":-1,\\\"punishStatus\\\":0}\"}",
			"traceContext": "{\"sourceType\":4}"
		},
		{
			"id": 2162200587060510399,
			"title": "北京市海淀区西二旗小学",
			"address": "北京市海淀区西二旗西路二九西二旗智学苑",
			"category": "--",
			"city": "北京市",
			"latitude": 40.050082,
			"longitude": 116.311049,
			"coverUrls": null,
			"distance": 466.00269511317856,
			"linkUrl": null,
			"extParams": "{\"localLife\":\"{\\\"commodityCount\\\":0,\\\"commodityWithPromotionCount\\\":0,\\\"localLifePromotionId\\\":-1,\\\"punishStatus\\\":0}\"}",
			"traceContext": "{\"sourceType\":4}"
		},
		{
			"id": 3002224735178498229,
			"title": "阳坊大都涮羊肉羊蝎子(西二旗店)",
			"address": "北京市海淀区西二旗大街39-3号",
			"province": "北京市",
			"district": "海淀区",
			"category": "餐饮-火锅-火锅",
			"city": "北京市",
			"latitude": 40.052314,
			"longitude": 116.30988,
			"coverUrls": null,
			"distance": 613.2028583940396,
			"linkUrl": null,
			"extParams": "{\"localLife\":\"{\\\"commodityCount\\\":0,\\\"commodityWithPromotionCount\\\":0,\\\"localLifePromotionId\\\":-1,\\\"punishStatus\\\":0}\"}",
			"traceContext": "{\"sourceType\":4}"
		},
		{
			"id": 3002180238880972894,
			"title": "领秀新硅谷B区69幢",
			"address": "北京市海淀区 ",
			"province": "北京市",
			"district": "海淀区",
			"category": "商务住宅-住宅区-住宅区",
			"city": "北京市",
			"latitude": 40.05365,
			"longitude": 116.311012,
			"coverUrls": null,
			"distance": 607.4181529661349,
			"linkUrl": null,
			"extParams": "{\"localLife\":\"{\\\"commodityCount\\\":0,\\\"commodityWithPromotionCount\\\":0,\\\"localLifePromotionId\\\":-1,\\\"punishStatus\\\":0}\"}",
			"traceContext": "{\"sourceType\":4}"
		},
		{
			"id": 3002182897821917220,
			"title": "爱视明眼镜(西二旗店)",
			"address": "北京市海淀区西二旗大街益民商城北门1层",
			"province": "北京市",
			"district": "海淀区",
			"category": "购物-专卖店-眼镜店",
			"city": "北京市",
			"latitude": 40.053179,
			"longitude": 116.313517,
			"coverUrls": null,
			"distance": 420.3811944860032,
			"linkUrl": null,
			"extParams": "{\"localLife\":\"{\\\"commodityCount\\\":0,\\\"commodityWithPromotionCount\\\":0,\\\"localLifePromotionId\\\":-1,\\\"punishStatus\\\":0}\"}",
			"traceContext": "{\"sourceType\":4}"
		},
		{
			"id": 3002224735178498228,
			"title": "朴氏私家火锅(西二旗店)",
			"address": "北京市海淀区西二旗大街39号楼一层39-4-3",
			"province": "北京市",
			"district": "海淀区",
			"category": "餐饮-火锅-火锅",
			"city": "北京市",
			"latitude": 40.05219,
			"longitude": 116.309571,
			"coverUrls": null,
			"distance": 632.5303325540859,
			"linkUrl": null,
			"extParams": "{\"localLife\":\"{\\\"commodityCount\\\":0,\\\"commodityWithPromotionCount\\\":0,\\\"localLifePromotionId\\\":-1,\\\"punishStatus\\\":0}\"}",
			"traceContext": "{\"sourceType\":4}"
		},
		{
			"id": 3002224735174467729,
			"title": "嗨锅鱼",
			"address": "北京市海淀区小米移动互联网产业园",
			"province": "北京市",
			"district": "海淀区",
			"category": "餐饮-火锅-火锅",
			"city": "北京市",
			"latitude": 40.047541,
			"longitude": 116.317719,
			"coverUrls": null,
			"distance": 310.5427480598609,
			"linkUrl": null,
			"extParams": "{\"localLife\":\"{\\\"commodityCount\\\":0,\\\"commodityWithPromotionCount\\\":0,\\\"localLifePromotionId\\\":-1,\\\"punishStatus\\\":0}\"}",
			"traceContext": "{\"sourceType\":4}"
		},
		{
			"id": 3002224735178498227,
			"title": "小木船潮汕牛肉火锅(西二旗店)",
			"address": "北京市海淀区西二旗大街39号1层39-7-118室",
			"province": "北京市",
			"district": "海淀区",
			"category": "餐饮-火锅-火锅",
			"city": "北京市",
			"latitude": 40.051906,
			"longitude": 116.308886,
			"coverUrls": null,
			"distance": 677.7673115187165,
			"linkUrl": null,
			"extParams": "{\"localLife\":\"{\\\"commodityCount\\\":0,\\\"commodityWithPromotionCount\\\":0,\\\"localLifePromotionId\\\":-1,\\\"punishStatus\\\":0}\"}",
			"traceContext": "{\"sourceType\":4}"
		},
		{
			"id": 3002180238882054238,
			"title": "融通高科大厦B座",
			"address": "北京市海淀区西二旗大街39号融通高科大厦",
			"province": "北京市",
			"district": "海淀区",
			"category": "商务住宅-楼宇-楼宇",
			"city": "北京市",
			"latitude": 40.052152,
			"longitude": 116.308961,
			"coverUrls": null,
			"distance": 679.9734840765457,
			"linkUrl": null,
			"extParams": "{\"localLife\":\"{\\\"commodityCount\\\":0,\\\"commodityWithPromotionCount\\\":0,\\\"localLifePromotionId\\\":-1,\\\"punishStatus\\\":0}\"}",
			"traceContext": "{\"sourceType\":4}"
		},
		{
			"id": 3002242036361535673,
			"title": "童安康",
			"address": "北京市海淀区西二旗西路",
			"province": "北京市",
			"district": "海淀区",
			"category": "购物-购物场所-购物场所",
			"city": "北京市",
			"latitude": 40.050248,
			"longitude": 116.313594,
			"coverUrls": null,
			"distance": 249.35773151938554,
			"linkUrl": null,
			"extParams": "{\"localLife\":\"{\\\"commodityCount\\\":0,\\\"commodityWithPromotionCount\\\":0,\\\"localLifePromotionId\\\":-1,\\\"punishStatus\\\":0}\"}",
			"traceContext": "{\"sourceType\":4}"
		},
		{
			"id": 3002228315550130398,
			"title": "亚惠美食(西二旗中路店)",
			"address": "北京市海淀区清河街道安宁庄小米科技园h栋",
			"province": "北京市",
			"district": "海淀区",
			"category": "餐饮-小吃快餐-快餐简餐",
			"city": "北京市",
			"latitude": 40.048675,
			"longitude": 116.318479,
			"coverUrls": null,
			"distance": 236.05731425750506,
			"linkUrl": null,
			"extParams": "{\"localLife\":\"{\\\"commodityCount\\\":0,\\\"commodityWithPromotionCount\\\":0,\\\"localLifePromotionId\\\":-1,\\\"punishStatus\\\":0}\"}",
			"traceContext": "{\"sourceType\":4}"
		},
		{
			"id": 3002041400260698247,
			"title": "喜茶(小米科技园GO店)",
			"address": "西二旗中路33号院2号楼一层004号铺位",
			"province": "北京市",
			"district": "海淀区",
			"category": "--",
			"city": "北京市",
			"latitude": 40.048172,
			"longitude": 116.317804,
			"coverUrls": null,
			"distance": 248.43384432123227,
			"linkUrl": null,
			"extParams": "{\"localLife\":\"{\\\"commodityCount\\\":0,\\\"commodityWithPromotionCount\\\":0,\\\"localLifePromotionId\\\":-1,\\\"punishStatus\\\":0}\"}",
			"traceContext": "{\"sourceType\":4}"
		},
		{
			"id": 6724909544070990130,
			"title": "麦田房产燕尚园店",
			"address": "北京市北京市海淀区西二旗路燕尚园",
			"province": "北京市",
			"district": "海淀区",
			"category": "生活服务-中介机构-中介机构",
			"city": "北京市",
			"latitude": 40.048754,
			"longitude": 116.313562,
			"coverUrls": null,
			"distance": 297.6531767520108,
			"linkUrl": null,
			"extParams": "{\"localLife\":\"{\\\"commodityCount\\\":0,\\\"commodityWithPromotionCount\\\":0,\\\"localLifePromotionId\\\":-1,\\\"punishStatus\\\":0}\"}",
			"traceContext": "{\"sourceType\":4}"
		},
		{
			"id": 6724909447937292380,
			"title": "铭科苑小区东门",
			"address": "北京市海淀区西二旗中路",
			"province": "北京市",
			"district": "海淀区",
			"category": "基础设施-通行设施-建筑物门",
			"city": "北京市",
			"latitude": 40.052691,
			"longitude": 116.316325,
			"coverUrls": null,
			"distance": 279.84175346084623,
			"linkUrl": null,
			"extParams": "{\"localLife\":\"{\\\"commodityCount\\\":0,\\\"commodityWithPromotionCount\\\":0,\\\"localLifePromotionId\\\":-1,\\\"punishStatus\\\":0}\"}",
			"traceContext": "{\"sourceType\":4}"
		},
		{
			"id": 6724909544100429270,
			"title": "霍营h口西南口",
			"address": "北京市昌平区",
			"province": "北京市",
			"district": "昌平区",
			"category": "基础设施-交通设施-地铁站",
			"city": "北京市",
			"latitude": 40.071678,
			"longitude": 116.360412,
			"coverUrls": null,
			"distance": 4434.996141343675,
			"linkUrl": null,
			"extParams": "{\"localLife\":\"{\\\"commodityCount\\\":0,\\\"commodityWithPromotionCount\\\":0,\\\"localLifePromotionId\\\":-1,\\\"punishStatus\\\":0}\"}",
			"traceContext": "{\"sourceType\":4}"
		},
		{
			"id": 6724909544100894840,
			"title": "东北大馅包子馅饼",
			"address": "北京市朝阳区十八里店镇西直河中街百家福超市北侧",
			"province": "北京市",
			"district": "朝阳区",
			"category": "餐饮-小吃快餐-快餐简餐",
			"city": "北京市",
			"latitude": 39.847807,
			"longitude": 116.525965,
			"coverUrls": null,
			"distance": 28726.80843020222,
			"linkUrl": null,
			"extParams": "{\"localLife\":\"{\\\"commodityCount\\\":0,\\\"commodityWithPromotionCount\\\":0,\\\"localLifePromotionId\\\":-1,\\\"punishStatus\\\":0}\"}",
			"traceContext": "{\"sourceType\":4}"
		},
		{
			"id": 6724909544085974500,
			"title": "北京经济技术开发区社会保险保障中心",
			"address": "北京市大兴区亦庄经济技术开发区荣昌东街甲5号隆盛大厦B座2层",
			"province": "北京市",
			"district": "大兴区",
			"category": "政府机构及社会团体-政府机关-政府机关",
			"city": "北京市",
			"latitude": 39.784353,
			"longitude": 116.525522,
			"coverUrls": null,
			"distance": 34518.881245216806,
			"linkUrl": null,
			"extParams": "{\"localLife\":\"{\\\"commodityCount\\\":0,\\\"commodityWithPromotionCount\\\":0,\\\"localLifePromotionId\\\":-1,\\\"punishStatus\\\":0}\"}",
			"traceContext": "{\"sourceType\":4}"
		},
		{
			"id": 3002181774291017844,
			"title": "同城 +V:HHHH",
			"address": "北京市丰台区同仁堂科技发展股份有限公司东侧",
			"province": "北京市",
			"district": "丰台区",
			"category": "丽人-美发-美发",
			"city": "北京市",
			"latitude": 39.85574,
			"longitude": 116.416904,
			"coverUrls": null,
			"distance": 23253.623543577203,
			"linkUrl": null,
			"extParams": "{\"localLife\":\"{\\\"commodityCount\\\":0,\\\"commodityWithPromotionCount\\\":0,\\\"localLifePromotionId\\\":-1,\\\"punishStatus\\\":0}\"}",
			"traceContext": "{\"sourceType\":4}"
		},
		{
			"id": 6724909544101268840,
			"title": "经济日报社综合业务楼",
			"address": "北京市西城区白纸坊东街2号院6号楼",
			"province": "北京市",
			"district": "西城区",
			"category": "商务住宅-楼宇-楼宇",
			"city": "北京市",
			"latitude": 39.878336,
			"longitude": 116.372155,
			"coverUrls": null,
			"distance": 19688.731412242185,
			"linkUrl": null,
			"extParams": "{\"localLife\":\"{\\\"commodityCount\\\":0,\\\"commodityWithPromotionCount\\\":0,\\\"localLifePromotionId\\\":-1,\\\"punishStatus\\\":0}\"}",
			"traceContext": "{\"sourceType\":4}"
		},
		{
			"id": 3002224740127973533,
			"title": "好好生活",
			"address": "北京市房山区田家园北路田园新村-二区北侧约190米",
			"province": "北京市",
			"district": "房山区",
			"category": "购物-超市-超市",
			"city": "北京市",
			"latitude": 39.658541,
			"longitude": 116.063385,
			"coverUrls": null,
			"distance": 48617.30003349695,
			"linkUrl": null,
			"extParams": "{\"localLife\":\"{\\\"commodityCount\\\":0,\\\"commodityWithPromotionCount\\\":0,\\\"localLifePromotionId\\\":-1,\\\"punishStatus\\\":0}\"}",
			"traceContext": "{\"sourceType\":4}"
		}
	],
	"extParams": "{\"banType\":11,\"punishStatus\":0,\"punishNotice\":null,\"poiPunishNoticeInfo\":{\"displayNotice\":\"测试1\",\"touchNotice\":\"测试2\"}}",
	"requestId": "EJmBgICAy5iOrAEYwQIght78z7YxKP-184AI",
	"pcursor": "1$"
}